{
  "$schema": "https://vega.github.io/schema/vega-lite/v5.json",
  "title": {
    "text": "Major Cities and Towns in Wales",
    "subtitle": "Population size shown by circle size",
    "fontSize": 14
  },
  "width": 380,
  "height": 400,
  "projection": {
    "type": "mercator"
  },
  "layer": [
    {
      "data": {
        "url": "https://raw.githubusercontent.com/martinjc/UK-GeoJSON/master/json/administrative/wls/lad.json",
        "format": {
          "type": "topojson",
          "feature": "lad"
        }
      },
      "mark": {
        "type": "geoshape",
        "fill": "#e8f4f8",
        "stroke": "#333",
        "strokeWidth": 0.5
      }
    },
    {
      "data": {
        "values": [
          {"city": "Cardiff", "lat": 51.4816, "lon": -3.1791, "population": 362400},
          {"city": "Swansea", "lat": 51.6214, "lon": -3.9436, "population": 246466},
          {"city": "Newport", "lat": 51.5842, "lon": -2.9977, "population": 156447},
          {"city": "Wrexham", "lat": 53.0469, "lon": -2.9916, "population": 65692},
          {"city": "Barry", "lat": 51.3997, "lon": -3.2838, "population": 54673},
          {"city": "Neath", "lat": 51.6628, "lon": -3.8073, "population": 50658},
          {"city": "Cwmbran", "lat": 51.6544, "lon": -3.0211, "population": 48535},
          {"city": "Bridgend", "lat": 51.5043, "lon": -3.5773, "population": 46757},
          {"city": "Llanelli", "lat": 51.6821, "lon": -4.1626, "population": 43878},
          {"city": "Merthyr Tydfil", "lat": 51.7487, "lon": -3.3816, "population": 43820},
          {"city": "Rhondda", "lat": 51.6590, "lon": -3.4490, "population": 39550},
          {"city": "Colwyn Bay", "lat": 53.2946, "lon": -3.7277, "population": 34284},
          {"city": "Pontypool", "lat": 51.7004, "lon": -3.0444, "population": 28970},
          {"city": "Penarth", "lat": 51.4349, "lon": -3.1731, "population": 27226},
          {"city": "Rhyl", "lat": 53.3192, "lon": -3.4916, "population": 25149},
          {"city": "Aberdare", "lat": 51.7143, "lon": -3.4453, "population": 39550},
          {"city": "Caerphilly", "lat": 51.5742, "lon": -3.2180, "population": 41402},
          {"city": "Port Talbot", "lat": 51.5906, "lon": -3.7986, "population": 37276},
          {"city": "Pontypridd", "lat": 51.6021, "lon": -3.3420, "population": 32694},
          {"city": "Abergavenny", "lat": 51.8241, "lon": -3.0166, "population": 10078}
        ]
      },
      "projection": {
        "type": "mercator"
      },
      "mark": {
        "type": "circle",
        "opacity": 0.8,
        "stroke": "white",
        "strokeWidth": 1
      },
      "encoding": {
        "longitude": {
          "field": "lon",
          "type": "quantitative"
        },
        "latitude": {
          "field": "lat",
          "type": "quantitative"
        },
        "size": {
          "field": "population",
          "type": "quantitative",
          "scale": {
            "range": [50, 500]
          },
          "title": "Population"
        },
        "color": {
          "field": "population",
          "type": "quantitative",
          "scale": {
            "scheme": "orangered"
          },
          "title": "Population"
        },
        "tooltip": [
          {"field": "city", "type": "nominal", "title": "City"},
          {"field": "population", "type": "quantitative", "title": "Population", "format": ",.0f"}
        ]
      }
    }
  ]
}