{
  "$schema": "https://vega.github.io/schema/vega-lite/v5.json",
  "title": {
    "text": "Wales: Tourist Attractions & National Parks",
    "subtitle": "Major tourist destinations with annual visitor numbers (millions)",
    "fontSize": 16,
    "fontWeight": "bold",
    "subtitleFontSize": 13,
    "anchor": "start",
    "color": "#2c3e50"
  },
  "width": 450,
  "height": 500,
  "projection": {
    "type": "mercator",
    "center": [-3.5, 52.3],
    "scale": 8000
  },
  "layer": [
    {
      "data": {
        "url": "https://raw.githubusercontent.com/martinjc/UK-GeoJSON/master/json/administrative/wls/lad.json",
        "format": {"type": "topojson", "feature": "lad"}
      },
      "mark": {
        "type": "geoshape",
        "fill": "#e8f5e9",
        "stroke": "#4caf50",
        "strokeWidth": 0.5
      }
    },
    {
      "data": {
        "values": [
          {"name": "Snowdonia", "lat": 53.0685, "lon": -3.9086, "visitors": 4.27, "type": "National Park", "icon": "üèîÔ∏è"},
          {"name": "Brecon Beacons", "lat": 51.8799, "lon": -3.4354, "visitors": 3.85, "type": "National Park", "icon": "üèîÔ∏è"},
          {"name": "Pembrokeshire Coast", "lat": 51.6721, "lon": -5.0527, "visitors": 4.2, "type": "National Park", "icon": "üèñÔ∏è"},
          {"name": "Cardiff Castle", "lat": 51.4822, "lon": -3.1812, "visitors": 2.1, "type": "Castle", "icon": "üè∞"},
          {"name": "Caernarfon Castle", "lat": 53.1393, "lon": -4.2769, "visitors": 0.68, "type": "Castle", "icon": "üè∞"},
          {"name": "Conwy Castle", "lat": 53.2803, "lon": -3.8253, "visitors": 0.56, "type": "Castle", "icon": "üè∞"},
          {"name": "St Fagans Museum", "lat": 51.4867, "lon": -3.2719, "visitors": 0.65, "type": "Museum", "icon": "üèõÔ∏è"},
          {"name": "Portmeirion", "lat": 52.9134, "lon": -4.0983, "visitors": 0.24, "type": "Village", "icon": "üèòÔ∏è"},
          {"name": "Big Pit Mining Museum", "lat": 51.7794, "lon": -3.1077, "visitors": 0.15, "type": "Museum", "icon": "‚õèÔ∏è"},
          {"name": "Llandudno", "lat": 53.3239, "lon": -3.8261, "visitors": 1.85, "type": "Resort", "icon": "üèñÔ∏è"},
          {"name": "Tenby", "lat": 51.6729, "lon": -4.7036, "visitors": 0.95, "type": "Resort", "icon": "üèñÔ∏è"},
          {"name": "Hay-on-Wye", "lat": 52.0742, "lon": -3.1257, "visitors": 0.35, "type": "Town", "icon": "üìö"},
          {"name": "Anglesey", "lat": 53.2500, "lon": -4.3333, "visitors": 1.72, "type": "Island", "icon": "üèùÔ∏è"},
          {"name": "Gower Peninsula", "lat": 51.5881, "lon": -4.1771, "visitors": 2.5, "type": "AONB", "icon": "üåä"}
        ]
      },
      "transform": [
        {"calculate": "datum.visitors * 50", "as": "size_scaled"}
      ],
      "mark": {
        "type": "circle",
        "opacity": 0.8,
        "stroke": "white",
        "strokeWidth": 2
      },
      "encoding": {
        "longitude": {"field": "lon", "type": "quantitative"},
        "latitude": {"field": "lat", "type": "quantitative"},
        "size": {
          "field": "visitors",
          "type": "quantitative",
          "scale": {"range": [100, 1000]},
          "legend": {
            "title": "Annual Visitors (millions)",
            "orient": "bottom-left"
          }
        },
        "color": {
          "field": "type",
          "type": "nominal",
          "scale": {
            "domain": ["National Park", "Castle", "Museum", "Resort", "Village", "Town", "Island", "AONB"],
            "range": ["#2e7d32", "#d32f2f", "#1976d2", "#00acc1", "#7b1fa2", "#f57c00", "#0097a7", "#388e3c"]
          },
          "legend": {
            "title": "Attraction Type",
            "orient": "top-right"
          }
        },
        "tooltip": [
          {"field": "name", "type": "nominal", "title": "Attraction"},
          {"field": "type", "type": "nominal", "title": "Type"},
          {"field": "visitors", "type": "quantitative", "title": "Annual Visitors", "format": ".2f million"},
          {"field": "icon", "type": "nominal", "title": "Symbol"}
        ]
      }
    },
    {
      "data": {
        "values": [
          {"name": "Snowdonia", "lat": 53.0685, "lon": -3.9086, "icon": "üèîÔ∏è"},
          {"name": "Cardiff Castle", "lat": 51.4822, "lon": -3.1812, "icon": "üè∞"},
          {"name": "Pembrokeshire", "lat": 51.6721, "lon": -5.0527, "icon": "üèñÔ∏è"},
          {"name": "Gower", "lat": 51.5881, "lon": -4.1771, "icon": "üåä"}
        ]
      },
      "mark": {
        "type": "text",
        "fontSize": 11,
        "fontWeight": "bold",
        "dy": -15
      },
      "encoding": {
        "longitude": {"field": "lon", "type": "quantitative"},
        "latitude": {"field": "lat", "type": "quantitative"},
        "text": {"field": "name"}
      }
    },
    {
      "data": {
        "values": [
          {"name": "Cardiff", "lat": 51.4816, "lon": -3.1791},
          {"name": "Swansea", "lat": 51.6214, "lon": -3.9436},
          {"name": "Newport", "lat": 51.5842, "lon": -2.9977}
        ]
      },
      "mark": {
        "type": "square",
        "size": 50,
        "fill": "black",
        "opacity": 0.7
      },
      "encoding": {
        "longitude": {"field": "lon", "type": "quantitative"},
        "latitude": {"field": "lat", "type": "quantitative"},
        "tooltip": [{"field": "name", "title": "City"}]
      }
    }
  ],
  "config": {
    "view": {"stroke": "transparent"},
    "background": "#f0f8ff"
  }
}